{"type":"FeatureCollection","features":[{"type":"Feature","geometry":{"type":"Point","coordinates":[-71.083999,42.36273]},"properties":{"src":"cambridge_permit","name":"Mirra Co.","address":"390 Third St, Cambridge, MA 02142","start":"2026-07-06","end":"2026-07-28","kind":"Excavation"}},{"type":"Feature","geometry":{"type":"Point","coordinates":[-71.119451,42.38613]},"properties":{"src":"cambridge_permit","name":"Eversource Gas","address":"1798-A Massachusetts Ave, Cambridge, MA 02140","start":"2026-05-06","end":"2026-09-04","kind":"Excavation"}},{"type":"Feature","geometry":{"type":"Point","coordinates":[-71.130227,42.39717]},"properties":{"src":"cambridge_permit","name":"Eversource Gas","address":"2400 Massachusetts Ave, Cambridge, MA 02140","start":"2024-02-16","end":"2026-10-31","kind":"Excavation"}},{"type":"Feature","geometry":{"type":"Point","coordinates":[-71.108994,42.36836]},"properties":{"src":"cambridge_permit","name":"Anderson Construction & Excavation Inc.","address":"922 Massachusetts Ave, Cambridge, MA 02139","start":"2024-12-23","end":"2026-08-31","kind":"Excavation"}},{"type":"Feature","geometry":{"type":"Point","coordinates":[-71.114096,42.378048]},"properties":{"src":"cambridge_permit","name":"Eversource Gas","address":"6 Divinity Ave, Cambridge, MA 02138","start":"2026-06-04","end":"2026-10-05","kind":"Excavation"}},{"type":"Feature","geometry":{"type":"Point","coordinates":[-71.104577,42.365398]},"properties":{"src":"cambridge_permit","name":"Eversource Gas","address":"25 Central Sq, Cambridge, MA 02139","start":"2026-05-04","end":"2026-09-04","kind":"Excavation"}},{"type":"Feature","geometry":{"type":"Point","coordinates":[-71.110204,42.373521]},"properties":{"src":"cambridge_permit","name":"Miscellaneous Sidewalk Contract","address":"441 Broadway, Cambridge, MA 02138","start":"2026-07-14","end":"2026-08-01","kind":"Excavation"}},{"type":"Feature","geometry":{"type":"Point","coordinates":[-71.101595,42.367089]},"properties":{"src":"cambridge_permit","name":"Eversource Gas","address":"39 Essex St, Cambridge, MA 02139","start":"2026-05-21","end":"2026-09-21","kind":"Excavation"}},{"type":"Feature","geometry":{"type":"Point","coordinates":[-71.108994,42.36836]},"properties":{"src":"cambridge_permit","name":"Hesed Cornerstone Development II LLC","address":"922 Massachusetts Ave, Cambridge, MA 02139","start":"2026-06-11","end":"2026-09-30","kind":"Excavation"}},{"type":"Feature","geometry":{"type":"Point","coordinates":[-71.084371,42.369563]},"properties":{"src":"cambridge_permit","name":"CJ Doherty, Inc","address":"129 Spring St, Cambridge, MA 02141","start":"2026-06-22","end":"2026-07-24","kind":"Excavation"}},{"type":"Feature","geometry":{"type":"Point","coordinates":[-71.083002,42.364244]},"properties":{"src":"cambridge_permit","name":"A. A. Will Corporation","address":"320 Third St, Cambridge, MA 02142","start":"2026-04-01","end":"2026-12-31","kind":"Excavation"}},{"type":"Feature","geometry":{"type":"Point","coordinates":[-71.11871,42.372158]},"properties":{"src":"cambridge_permit","name":"Eversource Gas","address":"75 Mt Auburn St, Cambridge, MA 02138","start":"2026-07-15","end":"2026-11-16","kind":"Excavation"}},{"type":"Feature","geometry":{"type":"Point","coordinates":[-71.094966,42.372278]},"properties":{"src":"cambridge_permit","name":"Eversource Gas","address":"381 Columbia St, Cambridge, MA 02139","start":"2025-12-15","end":"2026-10-12","kind":"Excavation"}},{"type":"Feature","geometry":{"type":"Point","coordinates":[-71.087573,42.366154]},"properties":{"src":"cambridge_permit","name":"Contract No 30101 \u2013 Binney Street Combined Sewer Rehabilitation","address":"300 Binney St, Cambridge, MA 02142","start":"2026-06-22","end":"2026-07-22","kind":"Excavation"}},{"type":"Feature","geometry":{"type":"Point","coordinates":[-71.088096,42.372182]},"properties":{"src":"cambridge_permit","name":"FiberAssetCo, LLC DBA Zayo","address":"691 Cambridge St, Cambridge, MA 02141","start":"2026-06-30","end":"2026-12-31","kind":"Excavation"}},{"type":"Feature","geometry":{"type":"Point","coordinates":[-71.085174,42.37046]},"properties":{"src":"cambridge_permit","name":"Circle Earth Excavation Inc","address":"49 Sixth St, Cambridge, MA 02141","start":"2026-04-09","end":"2026-11-20","kind":"Excavation"}},{"type":"Feature","geometry":{"type":"Point","coordinates":[-71.137106,42.372073]},"properties":{"src":"cambridge_permit","name":"F.E. French Construction","address":"178 Coolidge Hill, Cambridge, MA 02138","start":"2026-07-02","end":"2026-10-01","kind":"Excavation"}},{"type":"Feature","geometry":{"type":"Point","coordinates":[-71.117999,42.376692]},"properties":{"src":"cambridge_permit","name":"W. L. French Excavating Corp.","address":"1807 Cambridge St, Cambridge, MA 02138","start":"2025-06-02","end":"2027-06-01","kind":"Excavation"}},{"type":"Feature","geometry":{"type":"Point","coordinates":[-71.133399,42.399257]},"properties":{"src":"cambridge_permit","name":"Eversource Gas","address":"9 Cottage Park Ave, Cambridge, MA 02140","start":"2025-03-31","end":"2026-10-31","kind":"Excavation"}},{"type":"Feature","geometry":{"type":"Point","coordinates":[-71.094673,42.373776]},"properties":{"src":"cambridge_permit","name":"Eversource Gas","address":"310 Webster Ave, Cambridge, MA 02139","start":"2025-12-15","end":"2026-10-12","kind":"Excavation"}},{"type":"Feature","geometry":{"type":"Point","coordinates":[-71.090257,42.36692]},"properties":{"src":"cambridge_permit","name":"G. Greene Construction","address":"600 One Kendall Square Complex, Cambridge, MA 02142","start":"2026-03-03","end":"2026-12-31","kind":"Excavation"}},{"type":"Feature","geometry":{"type":"Point","coordinates":[-71.109325,42.374699]},"properties":{"src":"cambridge_permit","name":"Eversource Gas","address":"1640 Cambridge St, Cambridge, MA 02138","start":"2026-04-21","end":"2026-08-21","kind":"Excavation"}},{"type":"Feature","geometry":{"type":"Point","coordinates":[-71.089599,42.37301]},"properties":{"src":"cambridge_permit","name":"MassCEC EV","address":"32 Jefferson St, Cambridge, MA 02141","start":"2026-06-30","end":"2026-08-31","kind":"Excavation"}},{"type":"Feature","geometry":{"type":"Point","coordinates":[-71.145549,42.37925]},"properties":{"src":"cambridge_permit","name":"Eversource Gas","address":"540 Huron Ave, Cambridge, MA 02138","start":"2026-05-06","end":"2026-09-07","kind":"Excavation"}},{"type":"Feature","geometry":{"type":"Point","coordinates":[-71.125287,42.383838]},"properties":{"src":"cambridge_permit","name":"Eversource Gas","address":"29 Raymond St, Cambridge, MA 02138","start":"2026-05-26","end":"2026-09-28","kind":"Excavation"}},{"type":"Feature","geometry":{"type":"Point","coordinates":[-71.101989,42.366114]},"properties":{"src":"cambridge_permit","name":"The Port Infrastructure Phase II","address":"20 Essex St, Cambridge, MA 02139","start":"2026-05-05","end":"2029-07-15","kind":"Excavation"}},{"type":"Feature","geometry":{"type":"Point","coordinates":[-71.085702,42.363871]},"properties":{"src":"cambridge_permit","name":"A. A. Will Corporation","address":"55 Broadway, Cambridge, MA 02142","start":"2025-05-27","end":"2026-10-31","kind":"Excavation"}},{"type":"Feature","geometry":{"type":"Point","coordinates":[-71.114479,42.369644]},"properties":{"src":"cambridge_permit","name":"Eversource Gas","address":"38 Banks St, Cambridge, MA 02138","start":"2026-07-10","end":"2026-11-10","kind":"Excavation"}},{"type":"Feature","geometry":{"type":"Point","coordinates":[-71.111406,42.358658]},"properties":{"src":"cambridge_permit","name":"Leone Landscape Contractors Corp","address":"136 Magazine St, Cambridge, MA 02139","start":"2026-05-25","end":"2026-08-01","kind":"Excavation"}},{"type":"Feature","geometry":{"type":"Point","coordinates":[-71.13241,42.375493]},"properties":{"src":"cambridge_permit","name":"Eversource Gas","address":"21 Gibson St, Cambridge, MA 02138","start":"2026-07-10","end":"2027-03-10","kind":"Excavation"}},{"type":"Feature","geometry":{"type":"Point","coordinates":[-71.135302,42.370973]},"properties":{"src":"cambridge_permit","name":"Your Space Landscape & Const. Inc.","address":"80 Gerrys Landing Rd, Cambridge, MA 02138","start":"2026-06-25","end":"2026-07-25","kind":"Excavation"}},{"type":"Feature","geometry":{"type":"Point","coordinates":[-71.128515,42.386965]},"properties":{"src":"cambridge_permit","name":"Raymond Park","address":"112 Raymond St, Cambridge, MA 02140","start":"2025-11-17","end":"2026-07-31","kind":"Excavation"}},{"type":"Feature","geometry":{"type":"Point","coordinates":[-71.085702,42.363871]},"properties":{"src":"cambridge_permit","name":"J. Derenzo Co.","address":"55 Broadway, Cambridge, MA 02142","start":"2026-02-02","end":"2026-07-31","kind":"Excavation"}},{"type":"Feature","geometry":{"type":"Point","coordinates":[-71.154241,42.378518]},"properties":{"src":"cambridge_permit","name":"Eversource Gas","address":"10 May St, Cambridge, MA 02138","start":"2025-08-18","end":"2026-08-18","kind":"Excavation"}},{"type":"Feature","geometry":{"type":"Point","coordinates":[-71.134234,42.374308]},"properties":{"src":"cambridge_permit","name":"Massachusetts Water Resources Authority","address":"330 Mt Auburn St, Cambridge, MA 02138","start":"2026-06-08","end":"2026-08-31","kind":"Excavation"}},{"type":"Feature","geometry":{"type":"Point","coordinates":[-71.08233,42.365506]},"properties":{"src":"cambridge_permit","name":"James W. Flett Co., Inc.","address":"300 Third St, Cambridge, MA 02142","start":"2026-07-13","end":"2029-07-23","kind":"Excavation"}},{"type":"Feature","geometry":{"type":"Point","coordinates":[-71.134563,42.396594]},"properties":{"src":"cambridge_permit","name":"Eversource Gas","address":"108 Clay St, Cambridge, MA 02140","start":"2026-07-17","end":"2026-11-17","kind":"Excavation"}},{"type":"Feature","geometry":{"type":"Point","coordinates":[-71.148934,42.377559]},"properties":{"src":"cambridge_permit","name":"Uticon Inc.","address":"48 Park Ave, Cambridge, MA 02138","start":"2025-10-24","end":"2026-11-23","kind":"Excavation"}},{"type":"Feature","geometry":{"type":"Point","coordinates":[-71.096995,42.363128]},"properties":{"src":"cambridge_permit","name":"Eversource Gas","address":"782 Main St, Cambridge, MA 02139","start":"2025-09-29","end":"2026-07-31","kind":"Excavation"}},{"type":"Feature","geometry":{"type":"Point","coordinates":[-71.157528,42.393755]},"properties":{"src":"cambridge_permit","name":"Eversource Gas","address":"7 Normandy Ave, Cambridge, MA 02138","start":"2026-03-23","end":"2026-07-23","kind":"Excavation"}},{"type":"Feature","geometry":{"type":"Point","coordinates":[-71.1581,42.394373]},"properties":{"src":"cambridge_permit","name":"F.E. French Construction","address":"99 Blanchard Rd, Cambridge, MA 02138","start":"2026-05-11","end":"2026-12-31","kind":"Excavation"}},{"type":"Feature","geometry":{"type":"Point","coordinates":[-71.125605,42.391114]},"properties":{"src":"cambridge_permit","name":"Eversource Gas","address":"1 Pemberton Ter, Cambridge, MA 02140","start":"2026-01-28","end":"2026-11-27","kind":"Excavation"}},{"type":"Feature","geometry":{"type":"Point","coordinates":[-71.131879,42.392532]},"properties":{"src":"cambridge_permit","name":"9921","address":"18 Sargent St, Cambridge, MA 02140","start":"2026-07-14","end":"2026-07-31","kind":"Excavation"}},{"type":"Feature","geometry":{"type":"Point","coordinates":[-71.087998,42.364715]},"properties":{"src":"cambridge_permit","name":"United Civil Inc.","address":"121 Broadway, Cambridge, MA 02142","start":"2025-07-01","end":"2026-08-01","kind":"Excavation"}},{"type":"Feature","geometry":{"type":"Point","coordinates":[-71.132268,42.397754]},"properties":{"src":"cambridge_permit","name":"Alewife Linear Park Reconstruction Project","address":"9 Westley Ave, Cambridge, MA 02140","start":"2026-04-06","end":"2026-11-20","kind":"Excavation"}},{"type":"Feature","geometry":{"type":"Point","coordinates":[-71.088483,42.361596]},"properties":{"src":"cambridge_permit","name":"United Civil Inc.","address":"31 Ames St, Cambridge, MA 02142","start":"2026-03-24","end":"2027-04-01","kind":"Excavation"}},{"type":"Feature","geometry":{"type":"Point","coordinates":[-71.135233,42.382701]},"properties":{"src":"cambridge_permit","name":"Eversource Gas","address":"424 Walden St, Cambridge, MA 02138","start":"2026-04-09","end":"2026-08-10","kind":"Excavation"}},{"type":"Feature","geometry":{"type":"Point","coordinates":[-71.087998,42.364715]},"properties":{"src":"cambridge_permit","name":"J. Derenzo Co.","address":"121 Broadway, Cambridge, MA 02142","start":"2024-07-27","end":"2026-07-27","kind":"Excavation"}},{"type":"Feature","geometry":{"type":"Point","coordinates":[-71.109861,42.365349]},"properties":{"src":"cambridge_permit","name":"Kealey Excavation Corp.","address":"26 Jay St, Cambridge, MA 02139","start":"2025-05-07","end":"2026-07-31","kind":"Excavation"}},{"type":"Feature","geometry":{"type":"Point","coordinates":[-71.115553,42.367624]},"properties":{"src":"cambridge_permit","name":"MassCEC EV","address":"32 Flagg St, Cambridge, MA 02138","start":"2026-06-30","end":"2026-08-31","kind":"Excavation"}},{"type":"Feature","geometry":{"type":"Point","coordinates":[-71.090175,42.366446]},"properties":{"src":"cambridge_permit","name":"United Civil Inc.","address":"360 Binney St, Cambridge, MA 02142","start":"2025-08-01","end":"2026-07-31","kind":"Excavation"}},{"type":"Feature","geometry":{"type":"Point","coordinates":[-71.130213,42.397599]},"properties":{"src":"cambridge_permit","name":"Alewife Linear Park Reconstruction Project","address":"2409 Massachusetts Ave, Cambridge, MA 02140","start":"2026-04-01","end":"2026-11-20","kind":"Excavation"}},{"type":"Feature","geometry":{"type":"Point","coordinates":[-71.114537,42.369334]},"properties":{"src":"cambridge_permit","name":"Eversource Gas","address":"54 Banks St, Cambridge, MA 02138","start":"2026-07-10","end":"2026-11-10","kind":"Excavation"}},{"type":"Feature","geometry":{"type":"Point","coordinates":[-71.124724,42.38121]},"properties":{"src":"cambridge_permit","name":"Bond Brothers","address":"60 Linnaean St, Cambridge, MA 02138","start":"2026-07-13","end":"2026-07-31","kind":"Excavation"}},{"type":"Feature","geometry":{"type":"Point","coordinates":[-71.097799,42.367294]},"properties":{"src":"cambridge_permit","name":"Eversource Gas","address":"161 Columbia St, Cambridge, MA 02139","start":"2026-06-29","end":"2026-10-29","kind":"Excavation"}},{"type":"Feature","geometry":{"type":"Point","coordinates":[-71.087136,42.365994]},"properties":{"src":"cambridge_permit","name":"A. A. Will Corporation","address":"290 Binney St, Cambridge, MA 02142","start":"2023-03-14","end":"2026-11-25","kind":"Excavation"}},{"type":"Feature","geometry":{"type":"Point","coordinates":[-71.138223,42.39878]},"properties":{"src":"cambridge_permit","name":"SumCo Eco Contracting, LLC","address":"99 Whittemore Ave, Cambridge, MA 02140","start":"2025-12-08","end":"2026-10-31","kind":"Excavation"}},{"type":"Feature","geometry":{"type":"Point","coordinates":[-71.109967,42.361341]},"properties":{"src":"cambridge_permit","name":"We Construction Group inc","address":"15 Fairmont St, Cambridge, MA 02139","start":"2026-07-15","end":"2026-07-31","kind":"Excavation"}},{"type":"Feature","geometry":{"type":"Point","coordinates":[-71.153841,42.380585]},"properties":{"src":"cambridge_permit","name":"Eversource Gas","address":"680 Huron Ave, Cambridge, MA 02138","start":"2025-12-15","end":"2026-07-31","kind":"Excavation"}},{"type":"Feature","geometry":{"type":"Point","coordinates":[-71.114374,42.369406]},"properties":{"src":"cambridge_permit","name":"Eversource Gas","address":"48 Banks St, Cambridge, MA 02138","start":"2026-07-15","end":"2026-11-16","kind":"Excavation"}},{"type":"Feature","geometry":{"type":"Point","coordinates":[-71.098698,42.372843]},"properties":{"src":"cambridge_permit","name":"miscellaneous sidewalk contract","address":"299 Prospect St, Cambridge, MA 02139","start":"2026-06-30","end":"2026-07-25","kind":"Excavation"}},{"type":"Feature","geometry":{"type":"Point","coordinates":[-71.094596,42.366669]},"properties":{"src":"cambridge_permit","name":"Eversource Gas","address":"232 Broadway, Cambridge, MA 02139","start":"2026-04-29","end":"2026-08-28","kind":"Excavation"}},{"type":"Feature","geometry":{"type":"Point","coordinates":[-71.133929,42.399837]},"properties":{"src":"cambridge_permit","name":"Eversource Gas","address":"2542 Massachusetts Ave, Cambridge, MA 02140","start":"2025-09-19","end":"2026-07-31","kind":"Excavation"}},{"type":"Feature","geometry":{"type":"Point","coordinates":[-71.085174,42.37046]},"properties":{"src":"cambridge_permit","name":"Nauset Construction Corp","address":"49 Sixth St, Cambridge, MA 02141","start":"2025-06-24","end":"2026-12-31","kind":"Excavation"}},{"type":"Feature","geometry":{"type":"Point","coordinates":[-71.089582,42.363834]},"properties":{"src":"cambridge_permit","name":"United Civil Inc.","address":"201 Galileo Galilei Way, Cambridge, MA 02142","start":"2025-05-06","end":"2026-11-23","kind":"Excavation"}},{"type":"Feature","geometry":{"type":"Point","coordinates":[-71.096588,42.374193]},"properties":{"src":"cambridge_permit","name":"Eversource Electric","address":"151 Tremont St, Cambridge, MA 02139","start":"2025-12-01","end":"2026-08-31","kind":"Excavation"}},{"type":"Feature","geometry":{"type":"Point","coordinates":[-71.13045,42.377664]},"properties":{"src":"cambridge_permit","name":"Eversource Gas","address":"138 Brattle St, Cambridge, MA 02138","start":"2026-06-15","end":"2026-10-15","kind":"Excavation"}},{"type":"Feature","geometry":{"type":"Point","coordinates":[-71.094618,42.358884]},"properties":{"src":"cambridge_permit","name":"Eversource Gas","address":"84 Massachusetts Ave, Cambridge, MA 02139","start":"2026-06-02","end":"2026-10-02","kind":"Excavation"}},{"type":"Feature","geometry":{"type":"Point","coordinates":[-71.089406,42.373719]},"properties":{"src":"cambridge_permit","name":"Eversource Gas","address":"51 Porter St, Cambridge, MA 02141","start":"2026-05-21","end":"2026-09-21","kind":"Excavation"}},{"type":"Feature","geometry":{"type":"Point","coordinates":[-71.12955,42.397716]},"properties":{"src":"cambridge_permit","name":"Alewife Linear Park Reconstruction Project","address":"10 Cameron Ave, Cambridge, MA 02140","start":"2025-09-29","end":"2026-11-23","kind":"Excavation"}},{"type":"Feature","geometry":{"type":"Point","coordinates":[-71.13667,42.397499]},"properties":{"src":"cambridge_permit","name":"File No. 10334","address":"216 Harvey St, Cambridge, MA 02140","start":"2026-04-01","end":"2026-11-20","kind":"Excavation"}},{"type":"Feature","geometry":{"type":"Point","coordinates":[-71.094059,42.3619]},"properties":{"src":"cambridge_permit","name":"Crown Castle","address":"1 Portland St, Cambridge, MA 02139","start":"2025-10-31","end":"2026-08-31","kind":"Excavation"}},{"type":"Feature","geometry":{"type":"Point","coordinates":[-71.11586,42.378084]},"properties":{"src":"cambridge_permit","name":"Bond Brothers","address":"20 Oxford St, Cambridge, MA 02138","start":"2025-11-24","end":"2026-08-29","kind":"Excavation"}},{"type":"Feature","geometry":{"type":"Point","coordinates":[-71.097329,42.363155]},"properties":{"src":"cambridge_permit","name":"Eversource Gas","address":"810 Main St, Cambridge, MA 02139","start":"2026-04-17","end":"2026-08-17","kind":"Excavation"}},{"type":"Feature","geometry":{"type":"Point","coordinates":[-71.139662,42.372088]},"properties":{"src":"cambridge_permit","name":"Eversource Gas","address":"144 Coolidge Hill, Cambridge, MA 02138","start":"2026-04-07","end":"2026-08-11","kind":"Excavation"}},{"type":"Feature","geometry":{"type":"Point","coordinates":[-71.10063,42.373211]},"properties":{"src":"cambridge_permit","name":"Cambridge Water Works Contract File #11861","address":"136 Inman St, Cambridge, MA 02139","start":"2026-05-18","end":"2026-09-30","kind":"Excavation"}},{"type":"Feature","geometry":{"type":"Point","coordinates":[-71.089279,42.371267]},"properties":{"src":"cambridge_permit","name":"Eversource Gas","address":"8 Marcella St, Cambridge, MA 02141","start":"2026-06-05","end":"2026-10-05","kind":"Excavation"}},{"type":"Feature","geometry":{"type":"Point","coordinates":[-71.125582,42.391665]},"properties":{"src":"cambridge_permit","name":"Eversource Gas","address":"33 Pemberton St, Cambridge, MA 02140","start":"2026-01-28","end":"2026-11-27","kind":"Excavation"}},{"type":"Feature","geometry":{"type":"Point","coordinates":[-71.133254,42.39462]},"properties":{"src":"cambridge_permit","name":"Chapter 90 / Contract 25","address":"40 Montgomery St, Cambridge, MA 02140","start":"2025-02-11","end":"2026-09-01","kind":"Excavation"}},{"type":"Feature","geometry":{"type":"Point","coordinates":[-71.123625,42.376704]},"properties":{"src":"cambridge_permit","name":"Repossi Construction Services","address":"5 Phillips Pl, Cambridge, MA 02138","start":"2026-04-09","end":"2026-08-31","kind":"Excavation"}},{"type":"Feature","geometry":{"type":"Point","coordinates":[-71.089614,42.372048]},"properties":{"src":"cambridge_permit","name":"Eversource Gas","address":"770 CAMBRIDGE ST, Cambridge, MA 02141","start":"2026-04-27","end":"2026-08-28","kind":"Excavation"}},{"type":"Feature","geometry":{"type":"Point","coordinates":[-71.15666,42.391169]},"properties":{"src":"cambridge_permit","name":"Anderson Construction & Excavation Inc.","address":"4 Griswold St, Cambridge, MA 02138","start":"2026-05-11","end":"2026-08-31","kind":"Excavation"}},{"type":"Feature","geometry":{"type":"Point","coordinates":[-71.135839,42.381896]},"properties":{"src":"cambridge_permit","name":"Eversource Gas","address":"71 Reservoir St, Cambridge, MA 02138","start":"2026-03-18","end":"2026-07-23","kind":"Excavation"}},{"type":"Feature","geometry":{"type":"Point","coordinates":[-71.101387,42.357119]},"properties":{"src":"cambridge_permit","name":"Bond Brothers","address":"229 Vassar St, Cambridge, MA 02139","start":"2025-12-01","end":"2026-08-01","kind":"Excavation"}},{"type":"Feature","geometry":{"type":"Point","coordinates":[-71.111231,42.36159]},"properties":{"src":"cambridge_permit","name":"NCCL Enterprises","address":"101 Pleasant St, Cambridge, MA 02139","start":"2026-07-15","end":"2026-07-31","kind":"Excavation"}},{"type":"Feature","geometry":{"type":"Point","coordinates":[-71.116842,42.378796]},"properties":{"src":"cambridge_permit","name":"Bond Brothers","address":"33 Oxford St, Cambridge, MA 02138","start":"2026-06-23","end":"2026-08-31","kind":"Excavation"}},{"type":"Feature","geometry":{"type":"Point","coordinates":[-71.108993,42.368111]},"properties":{"src":"cambridge_permit","name":"Eversource Gas","address":"56 Hancock St, Cambridge, MA 02139","start":"2026-04-22","end":"2026-08-21","kind":"Excavation"}},{"type":"Feature","geometry":{"type":"Point","coordinates":[-71.132902,42.39048]},"properties":{"src":"cambridge_permit","name":"Sherman Street CSO Tank Project","address":"135 Sherman St, Cambridge, MA 02140","start":"2026-04-13","end":"2026-10-31","kind":"Excavation"}},{"type":"Feature","geometry":{"type":"Point","coordinates":[-71.114852,42.375333]},"properties":{"src":"cambridge_permit","name":"Cambridge Fire Dept.","address":"491 Broadway, Cambridge, MA 02138","start":"2024-06-24","end":"2026-11-03","kind":"Excavation"}},{"type":"Feature","geometry":{"type":"Point","coordinates":[-71.11067,42.36467]},"properties":{"src":"cambridge_permit","name":"Eversource Gas","address":"212 Western Ave, Cambridge, MA 02139","start":"2026-06-26","end":"2026-10-26","kind":"Excavation"}},{"type":"Feature","geometry":{"type":"Point","coordinates":[-71.135247,42.392698]},"properties":{"src":"cambridge_permit","name":"J. Derenzo Co.","address":"1 Jackson Pl, Cambridge, MA 02140","start":"2023-10-16","end":"2026-11-20","kind":"Excavation"}},{"type":"Feature","geometry":{"type":"Point","coordinates":[-71.079172,42.367492]},"properties":{"src":"cambridge_permit","name":"United Civil Inc.","address":"130 Second St, Cambridge, MA 02141","start":"2025-03-10","end":"2026-11-23","kind":"Excavation"}},{"type":"Feature","geometry":{"type":"Point","coordinates":[-71.097354,42.37292]},"properties":{"src":"cambridge_permit","name":"Eversource Gas","address":"85 Tremont St, Cambridge, MA 02139","start":"2026-05-04","end":"2026-09-04","kind":"Excavation"}},{"type":"Feature","geometry":{"type":"Point","coordinates":[-71.096838,42.363325]},"properties":{"src":"cambridge_permit","name":"Eversource Gas","address":"781 Main St, Cambridge, MA 02139","start":"2025-12-17","end":"2026-07-31","kind":"Excavation"}},{"type":"Feature","geometry":{"type":"Point","coordinates":[-71.082107,42.364212]},"properties":{"src":"cambridge_permit","name":"A. A. Will Corporation","address":"585 Third St, Cambridge, MA 02142","start":"2022-08-08","end":"2026-11-25","kind":"Excavation"}},{"type":"Feature","geometry":{"type":"Point","coordinates":[-71.114445,42.369269]},"properties":{"src":"cambridge_permit","name":"Keash Excavating Inc","address":"38-40 -48 - 54-56 Banks Street, Cambridge, MA 02138","start":"2026-07-21","end":"2026-09-08","kind":"Excavation"}},{"type":"Feature","geometry":{"type":"Point","coordinates":[-71.118202,42.388177]},"properties":{"src":"cambridge_permit","name":"Eversource Gas","address":"815 Somerville Ave, Cambridge, MA 02140","start":"2026-02-02","end":"2026-12-04","kind":"Excavation"}},{"type":"Feature","geometry":{"type":"Point","coordinates":[-71.084263,42.370973]},"properties":{"src":"cambridge_permit","name":"danella line service","address":"131 Otis St, Cambridge, MA 02141","start":"2025-06-23","end":"2026-08-23","kind":"Excavation"}},{"type":"Feature","geometry":{"type":"Point","coordinates":[-71.092547,42.365185]},"properties":{"src":"cambridge_permit","name":"Eversource Gas","address":"125 Portland St, Cambridge, MA 02139","start":"2026-04-27","end":"2026-08-28","kind":"Excavation"}},{"type":"Feature","geometry":{"type":"Point","coordinates":[-71.099942,42.365819]},"properties":{"src":"cambridge_permit","name":"Eversource Gas","address":"385 Washington St, Cambridge, MA 02139","start":"2026-06-10","end":"2026-10-12","kind":"Excavation"}},{"type":"Feature","geometry":{"type":"Point","coordinates":[-71.134375,42.399368]},"properties":{"src":"cambridge_permit","name":"Eversource Gas","address":"23 Brookford St, Cambridge, MA 02140","start":"2026-05-01","end":"2026-09-01","kind":"Excavation"}},{"type":"Feature","geometry":{"type":"Point","coordinates":[-71.107883,42.364098]},"properties":{"src":"cambridge_permit","name":"River Street Infrastructure & Streetscape Project","address":"98 River St, Cambridge, MA 02139","start":"2025-06-02","end":"2026-11-28","kind":"Excavation"}},{"type":"Feature","geometry":{"type":"Point","coordinates":[-71.148749,42.398261]},"properties":{"src":"cambridge_permit","name":"J. Calnan & Associates, Inc.","address":"60 Acorn Park Dr, Cambridge, MA 02140","start":"2026-04-02","end":"2026-07-31","kind":"Excavation"}},{"type":"Feature","geometry":{"type":"Point","coordinates":[-71.123109,42.380005]},"properties":{"src":"cambridge_permit","name":"Eversource Gas","address":"41 Walker St, Cambridge, MA 02138","start":"2026-05-21","end":"2026-09-21","kind":"Excavation"}},{"type":"Feature","geometry":{"type":"Point","coordinates":[-71.122288,42.376127]},"properties":{"src":"cambridge_permit","name":"Eversource Gas","address":"10 Garden St, Cambridge, MA 02138","start":"2026-06-02","end":"2026-10-02","kind":"Excavation"}},{"type":"Feature","geometry":{"type":"Point","coordinates":[-71.122489,42.387334]},"properties":{"src":"cambridge_permit","name":"Eversource Gas","address":"9 Walnut Ave, Cambridge, MA 02140","start":"2026-04-14","end":"2026-08-14","kind":"Excavation"}},{"type":"Feature","geometry":{"type":"Point","coordinates":[-71.088183,42.361552]},"properties":{"src":"cambridge_permit","name":"United Civil Inc.","address":"40 Ames St, Cambridge, MA 02142","start":"2025-08-04","end":"2026-09-01","kind":"Excavation"}},{"type":"Feature","geometry":{"type":"Point","coordinates":[-71.118271,42.376338]},"properties":{"src":"cambridge_permit","name":"W. L. French Excavating Corp.","address":"1805 Cambridge St, Cambridge, MA 02138","start":"2026-05-07","end":"2027-12-31","kind":"Excavation"}},{"type":"Feature","geometry":{"type":"Point","coordinates":[-71.109325,42.374699]},"properties":{"src":"cambridge_permit","name":"Eversource Gas","address":"1640 Cambridge St, Cambridge, MA 02138","start":"2026-06-05","end":"2026-10-05","kind":"Excavation"}},{"type":"Feature","geometry":{"type":"Point","coordinates":[-71.095268,42.373505]},"properties":{"src":"cambridge_permit","name":"Eversource Gas","address":"299 Elm St, Cambridge, MA 02139","start":"2026-07-14","end":"2026-11-16","kind":"Excavation"}},{"type":"Feature","geometry":{"type":"Point","coordinates":[-71.08416,42.366056]},"properties":{"src":"cambridge_permit","name":"G. Greene Construction","address":"195 Binney St, Unit 4104, Cambridge, MA 02142","start":"2025-09-01","end":"2028-12-31","kind":"Excavation"}},{"type":"Feature","geometry":{"type":"Point","coordinates":[-71.097354,42.37292]},"properties":{"src":"cambridge_permit","name":"Eversource Gas","address":"85 Tremont St, Cambridge, MA 02139","start":"2026-07-06","end":"2026-11-06","kind":"Excavation"}},{"type":"Feature","geometry":{"type":"Point","coordinates":[-71.094055,42.374167]},"properties":{"src":"cambridge_permit","name":"Eversource Gas","address":"455 Columbia St, Cambridge, MA 02141","start":"2025-12-15","end":"2026-10-12","kind":"Excavation"}},{"type":"Feature","geometry":{"type":"Point","coordinates":[-71.090517,42.370759]},"properties":{"src":"cambridge_permit","name":"MassCEC EV","address":"94 Berkshire St, Cambridge, MA 02141","start":"2026-06-30","end":"2026-08-31","kind":"Excavation"}},{"type":"Feature","geometry":{"type":"Point","coordinates":[-71.114059,42.366028]},"properties":{"src":"cambridge_permit","name":"Eversource Gas","address":"30 Elmer St, Cambridge, MA 02138","start":"2026-04-17","end":"2026-08-17","kind":"Excavation"}},{"type":"Feature","geometry":{"type":"Point","coordinates":[-71.081698,42.367232]},"properties":{"src":"cambridge_permit","name":"Phoenix Communications","address":"229 Third St, Cambridge, MA 02141","start":"2026-06-22","end":"2026-07-22","kind":"Excavation"}},{"type":"Feature","geometry":{"type":"Point","coordinates":[-71.123211,42.373792]},"properties":{"src":"cambridge_permit","name":"Eversource Gas","address":"127 Mt Auburn St, Cambridge, MA 02138","start":"2026-06-17","end":"2026-10-16","kind":"Excavation"}},{"type":"Feature","geometry":{"type":"Point","coordinates":[-71.084918,42.369486]},"properties":{"src":"cambridge_permit","name":"Eversource Gas","address":"146 Spring St, Cambridge, MA 02141","start":"2026-07-17","end":"2026-11-17","kind":"Excavation"}},{"type":"Feature","geometry":{"type":"Point","coordinates":[-71.120132,42.373997]},"properties":{"src":"cambridge_permit","name":"United Civil Inc.","address":"12 Palmer St, Cambridge, MA 02138","start":"2025-04-24","end":"2026-08-31","kind":"Excavation"}},{"type":"Feature","geometry":{"type":"Point","coordinates":[-71.117174,42.385385]},"properties":{"src":"cambridge_permit","name":"We Construction Group inc","address":"15 Forest St, Cambridge, MA 02140","start":"2026-07-15","end":"2026-07-31","kind":"Excavation"}},{"type":"Feature","geometry":{"type":"Point","coordinates":[-71.11316,42.364828]},"properties":{"src":"cambridge_permit","name":"Eversource Gas","address":"9 Hews St, Cambridge, MA 02139","start":"2025-07-03","end":"2026-10-31","kind":"Excavation"}},{"type":"Feature","geometry":{"type":"Point","coordinates":[-71.117625,42.375474]},"properties":{"src":"cambridge_permit","name":"Bond Brothers","address":"17 Harvard Yard, Cambridge, MA 02138","start":"2026-07-06","end":"2026-07-24","kind":"Excavation"}},{"type":"Feature","geometry":{"type":"Point","coordinates":[-71.108315,42.361219]},"properties":{"src":"cambridge_permit","name":"MassCEC EV","address":"24 Corporal Mcternan St, Cambridge, MA 02139","start":"2026-06-30","end":"2026-08-31","kind":"Excavation"}},{"type":"Feature","geometry":{"type":"Point","coordinates":[-71.101387,42.357119]},"properties":{"src":"cambridge_permit","name":"United Civil Inc.","address":"229 Vassar St, Cambridge, MA 02139","start":"2025-09-29","end":"2026-12-31","kind":"Excavation"}},{"type":"Feature","geometry":{"type":"Point","coordinates":[-71.133429,42.396601]},"properties":{"src":"cambridge_permit","name":"Eversource Gas","address":"1 George St, Cambridge, MA 02140","start":"2025-09-25","end":"2026-07-31","kind":"Excavation"}},{"type":"Feature","geometry":{"type":"Point","coordinates":[-71.129511,42.390756]},"properties":{"src":"cambridge_permit","name":"Eversource Gas","address":"148 Pemberton St, Cambridge, MA 02140","start":"2026-05-04","end":"2026-09-04","kind":"Excavation"}},{"type":"Feature","geometry":{"type":"Point","coordinates":[-71.097696,42.371336]},"properties":{"src":"cambridge_permit","name":"File No. 30798 FY26 Cleaning and CCTV Inspection of Sanitary Sewer, Combined Sewers and Storm Drains and Emergency Service","address":"147 Hampshire St, Cambridge, MA 02139","start":"2026-03-24","end":"2027-03-24","kind":"Excavation"}},{"type":"Feature","geometry":{"type":"Point","coordinates":[-71.108439,42.359567]},"properties":{"src":"cambridge_permit","name":"Eversource Gas","address":"174 Hamilton St, Cambridge, MA 02139","start":"2026-04-22","end":"2026-08-21","kind":"Excavation"}},{"type":"Feature","geometry":{"type":"Point","coordinates":[-71.153889,42.391934]},"properties":{"src":"cambridge_permit","name":"Eversource Gas","address":"273 WALDEN ST, Unit 1, Cambridge, MA 02138","start":"2026-07-14","end":"2026-11-16","kind":"Excavation"}},{"type":"Feature","geometry":{"type":"Point","coordinates":[-71.081797,42.369525]},"properties":{"src":"cambridge_permit","name":"Chapter 90 / Contract 25","address":"88 Sciarappa St, Cambridge, MA 02141","start":"2025-12-16","end":"2026-11-28","kind":"Excavation"}},{"type":"Feature","geometry":{"type":"Point","coordinates":[-71.11103,42.381037]},"properties":{"src":"cambridge_permit","name":"Mirra Co.","address":"138 Irving St, Cambridge, MA 02138","start":"2026-07-13","end":"2026-08-04","kind":"Excavation"}},{"type":"Feature","geometry":{"type":"Point","coordinates":[-71.120533,42.384801]},"properties":{"src":"cambridge_permit","name":"Eversource Gas","address":"7 Linnaean St, Cambridge, MA 02138","start":"2025-01-15","end":"2026-10-31","kind":"Excavation"}},{"type":"Feature","geometry":{"type":"Point","coordinates":[-71.114283,42.36435]},"properties":{"src":"cambridge_permit","name":"Eversource Gas","address":"356 Western Ave, Cambridge, MA 02139","start":"2022-07-01","end":"2026-07-31","kind":"Excavation"}},{"type":"Feature","geometry":{"type":"Point","coordinates":[-71.093539,42.362537]},"properties":{"src":"cambridge_permit","name":"Eversource Gas","address":"50 Portland St, Cambridge, MA 02139","start":"2026-04-27","end":"2026-08-28","kind":"Excavation"}},{"type":"Feature","geometry":{"type":"Point","coordinates":[-71.127019,42.384263]},"properties":{"src":"cambridge_permit","name":"Eversource Gas","address":"17 Gray Gdns E, Cambridge, MA 02138","start":"2026-06-25","end":"2026-10-26","kind":"Excavation"}},{"type":"Feature","geometry":{"type":"Point","coordinates":[-71.095894,42.370672]},"properties":{"src":"cambridge_permit","name":"Eversource Gas","address":"307 Columbia St, Cambridge, MA 02139","start":"2026-05-11","end":"2026-09-11","kind":"Excavation"}},{"type":"Feature","geometry":{"type":"Point","coordinates":[-71.087136,42.365994]},"properties":{"src":"cambridge_permit","name":"Bond Brothers","address":"290 Binney St, Cambridge, MA 02142","start":"2025-07-22","end":"2026-07-22","kind":"Excavation"}},{"type":"Feature","geometry":{"type":"Point","coordinates":[-71.095562,42.363021]},"properties":{"src":"cambridge_permit","name":"Eversource Gas","address":"730 Main St, Cambridge, MA 02139","start":"2026-06-09","end":"2026-10-09","kind":"Excavation"}},{"type":"Feature","geometry":{"type":"Point","coordinates":[-71.114131,42.370473]},"properties":{"src":"cambridge_permit","name":"Elite Construction Management Inc","address":"11 Mt Auburn St, Cambridge, MA 02138","start":"2025-10-09","end":"2026-11-21","kind":"Excavation"}},{"type":"Feature","geometry":{"type":"Point","coordinates":[-71.12515,42.391966]},"properties":{"src":"cambridge_permit","name":"Eversource Gas","address":"1 Warwick Pk, Cambridge, MA 02140","start":"2026-01-28","end":"2026-11-30","kind":"Excavation"}},{"type":"Feature","geometry":{"type":"Point","coordinates":[-71.12361,42.375358]},"properties":{"src":"cambridge_permit","name":"The Dow Company","address":"76 Brattle St, Cambridge, MA 02138","start":"2025-09-05","end":"2026-08-31","kind":"Excavation"}},{"type":"Feature","geometry":{"type":"Point","coordinates":[-71.131469,42.396788]},"properties":{"src":"cambridge_permit","name":"Eversource Gas","address":"9 Harrington Rd, Cambridge, MA 02140","start":"2026-04-09","end":"2026-08-10","kind":"Excavation"}},{"type":"Feature","geometry":{"type":"Point","coordinates":[-71.113681,42.363984]},"properties":{"src":"cambridge_permit","name":"Eversource Gas","address":"222 Putnam Ave, Cambridge, MA 02139","start":"2026-05-12","end":"2026-09-11","kind":"Excavation"}},{"type":"Feature","geometry":{"type":"Point","coordinates":[-71.089977,42.370396]},"properties":{"src":"cambridge_permit","name":"Eversource Gas","address":"16 Marney St, Cambridge, MA 02141","start":"2026-06-02","end":"2026-10-02","kind":"Excavation"}},{"type":"Feature","geometry":{"type":"Point","coordinates":[-71.119373,42.373344]},"properties":{"src":"cambridge_permit","name":"Reconstruction of Harvard Square","address":"6 Jfk St, Cambridge, MA 02138","start":"2024-09-17","end":"2026-09-30","kind":"Excavation"}}]}